ML Catalog Number,Format,Common Name,Scientific Name,Background Species,Recordist,Date,Year,Month,Day,Time,Country,Country-State-County,State,County,Locality,Latitude,Longitude,Age/Sex,Behaviors,Playback,Captive,Collected,Specimen ID,Home Archive Catalog Number,Recorder,Microphone,Accessory,Partner Institution,eBird Checklist ID,Unconfirmed,Air Temp(°C),Water Temp(°C),Media notes,Observation Details,Parent Species,eBird Species Code,Taxon Category,Taxonomic Sort,Recordist 2,Average Community Rating,Number of Ratings,Asset Tags,Original Image Height,Original Image Width
70998911,Audio,Black-and-white Warbler,Mniotilta varia,,James (Jim) Holmes,2017-10-06,2017,10,6,658,United States,US-AL-113,Alabama,Russell,Fort Mitchell National Cemetery,32.3528260,-85.0200175,,Call,Used,,,,,Olympus LS-11,Sennheiser ME 67,,,S39578748,,,,response to its own song,One singing,Mniotilta varia,bawwar,Species,33685,,4.33,6,,,
125968401,Audio,Black-and-white Warbler,Mniotilta varia,,Marcus Kelly,2018-11-30,2018,11,30,717,United States,US-FL-099,Florida,Palm Beach,Loxahatchee River District - (Restricted Access via AE Trips or Advanced Permission),26.9259322,-80.1402426,Adult Male,Call,Not Used,,,,,,,,,S50315130,,,,TINK and RATTLE,,Mniotilta varia,bawwar,Species,33685,,4.00,5,,,
520760621,Audio,Black-and-white Warbler,Mniotilta varia,,Owen Sinkus,2023-01-03,2023,1,3,854,United States,US-TX-029,Texas,Bexar,Brackenridge Park (HOTE 095),29.4590115,-98.4716392,,Call,Unspecified,,,,,,,,,S125317133,,,,,,Mniotilta varia,bawwar,Species,33685,,4.33,3,,,
440805011,Audio,Black-and-white Warbler,Mniotilta varia,Pipilo erythrophthalmus -- Eastern Towhee,Jeff Kenney,2022-04-23,2022,4,23,901,United States,US-PA-029,Pennsylvania,Chester,State Game Lands 43,40.1748208,-75.7980632,Adult – 2,Call,Not Used,,,,,iPhone Pro 11,,,,S107782753,,,,,,Mniotilta varia,bawwar,Species,33685,,4.33,3,,,
334740791,Audio,Black-and-white Warbler,Mniotilta varia,,Jay McGowan,2021-04-28,2021,4,28,546,United States,US-WV-019,West Virginia,Fayette,"New River Gorge NP--Fern Creek, Endless Wall N Trailhead",38.0625808,-81.0595764,Adult Male – 1,Call,Not Used,,,,,Sound Devices MixPre-3 II,Wildtronics Pro Mono Parabolic Microphone,"Wildtronics 22"" Parabola",,S86598888,,,,"Calls from an apparent male, near but apparently different from the male in ML334740051.",,Mniotilta varia,bawwar,Species,33685,,4.33,3,,,
261131691,Audio,Black-and-white Warbler,Mniotilta varia,,Matt Wistrand,2020-09-04,2020,9,4,607,United States,US-IL-043,Illinois,DuPage,"Elsen's Hill, West DuPage Woods Forest Preserve",41.8621000,-88.1725000,Immature Male – 1,Call; Foraging or Eating,Not Used,,,,,Sound Devices MixPre3,Sennheiser MKH20,Telinga Universal Pro,,S73166588,,,,Young male still learning how to sing (subsong).,,Mniotilta varia,bawwar,Species,33685,,4.33,3,,,
604457551,Audio,Black-and-white Warbler,Mniotilta varia,,Brian Sullivan,2023-07-21,2023,7,21,827,United States,US-PA-115,Pennsylvania,Susquehanna,"3035–3299 Harmony Rd, Susquehanna US-PA 41.95745, -75.69402",41.9574480,-75.6940180,,Call,Not Used,,,,,Zoom F3,Wildtronics Parabola Mic,Feather Light Dish,,S145215798,,,,,,Mniotilta varia,bawwar,Species,33685,,5.00,2,,,
246121191,Audio,Black-and-white Warbler,Mniotilta varia,,Nick Anich,2020-06-23,2020,6,23,807,United States,US-WI-033,Wisconsin,Dunn,Otter Creek easement,45.0928827,-91.8395874,,Call; Feeding Young,Unspecified,,,,,,,,,S70751946,,,,chip notes from young being fed,"squeaky wheel song, family group of 3 seen well, adds to this total.",Mniotilta varia,bawwar,Species,33685,,5.00,2,,,
539095321,Audio,Black-and-white Warbler,Mniotilta varia,Vireo griseus -- White-eyed Vireo; Thryothorus ludovicianus -- Carolina Wren; Polioptila caerulea -- Blue-gray Gnatcatcher; Cardinalis cardinalis -- Northern Cardinal,Tayler Brooks,2022-04-01,2022,4,1,1150,United States,US-TX-001,Texas,Anderson,Gus Engeling WMA--Catfish Creek,31.9672281,-95.8677477,,Call,Not Used,,,,,Sound Devices Mixpre3,Wildtronics Pro Mono Parabolic microphone,"Wildtronics 22"" parabola",,S106026696,,,,,,Mniotilta varia,bawwar,Species,33685,,4.00,3,,,
415220521,Audio,Black-and-white Warbler,Mniotilta varia,,Jay McGowan,2021-05-01,2021,5,1,631,United States,US-WV-019,West Virginia,Fayette,Babcock SP--Grist Mill,37.9797246,-80.9461713,Adult Female – 1,Call; Foraging or Eating,Not Used,,,,,Sound Devices MixPre-3 II,Wildtronics Pro Mono Parabolic Microphone,"Wildtronics 22"" Parabola",,S86805737,,,,Calls from a foraging female.,,Mniotilta varia,bawwar,Species,33685,,4.50,2,,,
342775341,Audio,Black-and-white Warbler,Mniotilta varia,Seiurus aurocapilla -- Ovenbird; Setophaga tigrina -- Cape May Warbler,Lisa Cancade Hackett,2021-05-20,2021,5,20,1800,Canada,CA-ON-NP,Ontario,Nipissing,"Mooz Miikan, Crystal Falls CA-ON 46.40775, -79.73198",46.4077470,-79.7319800,Adult – 1,Call,Unspecified,,,,,AudioMoth 1.1.0,,waterproof case,,S89077505,,,,,,Mniotilta varia,bawwar,Species,33685,,4.50,2,,,
337111511,Audio,Black-and-white Warbler,Mniotilta varia,Poecile atricapillus -- Black-capped Chickadee; Sitta canadensis -- Red-breasted Nuthatch; Pheucticus ludovicianus -- Rose-breasted Grosbeak; Cyanocitta cristata -- Blue Jay,Daniel Jauvin,2021-05-10,2021,5,10,807,Canada,CA-QC-NY,Quebec,Nicolet-Yamaska,Sentier Tolba,46.0726947,-72.8254509,Adult Male – 1,Call,Not Used,,,,,Sound Devices MixPre-3 II,Sennheiser ME 66 - K6,RØDE BLIMP-R Microphone with Rycote LYRE Mount,,S87735159,,,,"Paruline noir et blanc, cri d'alerte 0-26sec. puis chant typique: ""oui-si oui-si oui-si oui-si oui-si oui-si"".",,Mniotilta varia,bawwar,Species,33685,,4.50,2,,,
259300911,Audio,Black-and-white Warbler,Mniotilta varia,,Jay McGowan,2020-05-21,2020,5,21,636,United States,US-NY-109,New York,Tompkins,Lindsay-Parsons Biodiversity Preserve (FLLT),42.3101677,-76.5216895,Adult Male – 1; Unknown – 2,Call,Not Used,,,,,Sound Devices MixPre-3 II,Wildtronics Pro Mono Parabolic Microphone,"Wildtronics 22"" Parabola",,S69412109,,,,Chatter calls from a male near at least one or two other individuals.,"Several singing around edges of fields, several groups of 2-3 birds seen here and up on pinnacles.",Mniotilta varia,bawwar,Species,33685,,4.50,2,,,
169110641,Audio,Black-and-white Warbler,Mniotilta varia,,Glen Chapman,2019-05-23,2019,5,23,715,United States,US-NY-031,New York,Essex,Rock Pond,43.8532040,-73.5934510,,Call,Not Used,,,,,Sound Devices MixPre-3,"Wildtronics pro parabolic microphone, mono, amplified",Wildtronics 22 inch Parabola,,S56710517,,,,,,Mniotilta varia,bawwar,Species,33685,,4.50,2,,,
487550881,Audio,Black-and-white Warbler,Mniotilta varia,,Alex Lamoreaux,2022-09-25,2022,9,25,900,United States,US-NJ-009,New Jersey,Cape May,Cape Island--South Cape May Meadows (SCMM),38.9359287,-74.9434519,Immature Male – 1,Call; Flight Call; Flying,Not Used,,,,,iPhone 12PRO,,,,S119404954,,,,Calling upon release from banding,AHY female and HY male banded,Mniotilta varia,bawwar,Species,33685,,3.67,3,,,
